City_ID,City,Country,Date,Lat,Lng,Max Temp,Humidity,Cloudiness,Wind Speed
0,Cape Town,ZA,2021-07-19 15:46:59,-33.9258,18.4232,56.1,92,90,3.0
1,Genc,TR,2021-07-19 15:46:59,38.7507,40.5603,94.05,15,2,8.37
2,Lebu,CL,2021-07-19 15:46:59,-37.6167,-73.65,54.88,66,47,13.78
3,Saint-Augustin,CA,2021-07-19 15:47:00,51.226,-58.6502,74.52,50,100,16.15
4,Souillac,MU,2021-07-19 15:47:00,-20.5167,57.5167,73.36,78,75,16.11
5,Ushuaia,AR,2021-07-19 15:45:20,-54.8,-68.3,42.46,70,40,0.0
6,Olgod,DK,2021-07-19 15:47:01,55.8068,8.6286,70.05,69,70,14.07
7,Dikson,RU,2021-07-19 15:47:01,73.5069,80.5464,38.08,80,1,7.49
8,Bambous Virieux,MU,2021-07-19 15:47:01,-20.3428,57.7575,73.22,78,75,16.11
9,Axim,GH,2021-07-19 15:47:02,4.8699,-2.2405,77.54,76,100,7.74
10,Marawi,PH,2021-07-19 15:47:02,7.9986,124.2928,71.65,81,100,4.25
11,Ribeira Grande,PT,2021-07-19 15:47:10,38.5167,-28.7,73.8,83,40,16.11
12,Bathsheba,BB,2021-07-19 15:47:10,13.2167,-59.5167,86.61,70,40,26.46
13,Arlit,NE,2021-07-19 15:47:11,18.7369,7.3853,107.13,13,99,3.22
14,Jamestown,US,2021-07-19 15:45:00,42.097,-79.2353,78.12,71,75,3.0
15,Batabano,CU,2021-07-19 15:47:11,22.7164,-82.2881,86.61,62,80,9.69
16,Nouadhibou,MR,2021-07-19 15:47:11,20.931,-17.0347,75.18,78,74,23.02
17,Jiwani,PK,2021-07-19 15:47:12,25.05,61.7417,86.29,85,92,18.1
18,Hithadhoo,MV,2021-07-19 15:47:12,-0.6,73.0833,83.21,67,100,4.83
19,Arraial Do Cabo,BR,2021-07-19 15:47:12,-22.9661,-42.0278,71.56,60,75,13.8
20,Berlevag,NO,2021-07-19 15:47:13,70.8578,29.0864,53.6,72,81,16.64
21,Plerin,FR,2021-07-19 15:47:13,48.5425,-2.7798,85.75,66,0,7.0
22,Matagami,CA,2021-07-19 15:47:13,49.7502,-77.6328,57.31,67,90,2.3
23,Coquimbo,CL,2021-07-19 15:43:36,-29.9533,-71.3436,53.33,66,0,11.5
24,Bredasdorp,ZA,2021-07-19 15:47:14,-34.5322,20.0403,56.52,82,99,8.05
25,Comodoro Rivadavia,AR,2021-07-19 15:47:14,-45.8667,-67.5,57.06,62,40,1.14
26,Punta Arenas,CL,2021-07-19 15:47:15,-53.15,-70.9167,44.71,65,40,11.5
27,Saint-Francois,FR,2021-07-19 15:47:15,46.4154,3.9054,85.44,35,0,14.97
28,Hermanus,ZA,2021-07-19 15:47:15,-34.4187,19.2345,53.8,83,98,12.5
29,Qaanaaq,GL,2021-07-19 15:47:16,77.484,-69.3632,37.4,85,50,3.36
30,Mkushi,ZM,2021-07-19 15:47:16,-13.6202,29.3939,63.79,40,34,8.03
31,Mahebourg,MU,2021-07-19 15:47:16,-20.4081,57.7,73.26,78,75,16.11
32,Luderitz,NA,2021-07-19 15:47:17,-26.6481,15.1594,63.43,64,3,12.21
33,Victoria,HK,2021-07-19 15:42:52,22.2855,114.1577,82.38,91,100,5.99
34,Tasiilaq,GL,2021-07-19 15:47:17,65.6145,-37.6368,50.16,91,100,10.22
35,Cayenne,GF,2021-07-19 15:47:17,4.9333,-52.3333,80.64,86,75,1.99
36,Mango,US,2021-07-19 15:47:18,27.9797,-82.3065,91.96,75,75,1.99
37,Muyezerskiy,RU,2021-07-19 15:47:18,63.9333,31.65,63.48,47,89,9.15
38,Rocha,UY,2021-07-19 15:47:18,-34.4833,-54.3333,53.08,65,88,15.21
39,Swabi,PK,2021-07-19 15:47:19,34.1199,72.4699,80.02,81,100,3.94
40,Gunzenhausen,DE,2021-07-19 15:47:19,49.1,10.75,80.19,65,15,8.59
41,Busselton,AU,2021-07-19 15:47:20,-33.65,115.3333,52.09,83,94,9.75
42,Tocopilla,CL,2021-07-19 15:47:20,-22.092,-70.1979,67.12,62,94,7.78
43,Atar,MR,2021-07-19 15:47:20,20.5169,-13.0499,114.98,7,75,19.6
44,Georgetown,MY,2021-07-19 15:45:12,5.4112,100.3354,83.89,77,20,3.0
45,San Jose,US,2021-07-19 15:43:31,37.3394,-121.895,79.77,66,75,0.0
46,Holbeach,GB,2021-07-19 15:47:21,52.804,0.0144,86.34,71,14,9.4
47,Oparino,RU,2021-07-19 15:47:21,59.8518,48.2783,71.04,56,93,6.24
48,Pangnirtung,CA,2021-07-19 15:47:21,66.1451,-65.7125,44.6,93,90,11.5
49,Torbay,CA,2021-07-19 15:43:07,47.6666,-52.7314,74.75,66,75,13.8
50,Kruisfontein,ZA,2021-07-19 15:47:22,-34.0033,24.7314,58.89,82,19,12.17
51,Soligalich,RU,2021-07-19 15:47:22,59.0778,42.2864,75.79,69,75,3.74
52,Punta Alta,AR,2021-07-19 15:43:35,-38.8759,-62.0736,55.06,34,43,17.27
53,San Andres,CO,2021-07-19 15:47:23,12.5847,-81.7006,86.02,74,75,9.22
54,Rawson,AR,2021-07-19 15:47:23,-43.3002,-65.1023,58.78,31,100,17.38
55,Tame,CO,2021-07-19 15:47:23,6.461,-71.73,77.45,85,85,4.12
56,Pisco,PE,2021-07-19 15:47:24,-13.7,-76.2167,63.01,77,75,4.61
57,Cordeiro,BR,2021-07-19 15:47:24,-22.0286,-42.3608,69.51,68,76,2.77
58,Necochea,AR,2021-07-19 15:47:24,-38.5473,-58.7368,53.04,42,100,11.18
59,Quartucciu,IT,2021-07-19 15:47:25,39.2519,9.1794,89.78,66,0,11.5
60,Hobyo,SO,2021-07-19 15:47:25,5.3505,48.5268,77.43,80,99,25.14
61,Vila Velha,BR,2021-07-19 15:47:25,-20.3297,-40.2925,76.95,73,40,13.8
62,Altamira,BR,2021-07-19 15:43:15,-3.2033,-52.2064,89.69,62,75,5.75
63,Peniche,PT,2021-07-19 15:47:26,39.3558,-9.3811,71.08,82,78,17.13
64,Iqaluit,CA,2021-07-19 15:47:26,63.7506,-68.5145,46.13,66,75,5.75
65,Beloha,MG,2021-07-19 15:47:26,-25.1667,45.05,69.93,72,65,8.97
66,East London,ZA,2021-07-19 15:47:27,-33.0153,27.9116,70.74,32,0,6.91
67,Oshkosh,US,2021-07-19 15:43:31,44.0247,-88.5426,79.9,71,1,4.0
68,Port Elizabeth,ZA,2021-07-19 15:47:27,-33.918,25.5701,61.11,74,1,15.9
69,Hualmay,PE,2021-07-19 15:47:27,-11.0964,-77.6139,67.46,69,46,9.46
70,Port Alfred,ZA,2021-07-19 15:47:28,-33.5906,26.891,65.61,61,0,9.46
71,Buraydah,SA,2021-07-19 15:47:28,26.326,43.975,109.85,11,10,10.85
72,Nanortalik,GL,2021-07-19 15:47:28,60.1432,-45.2371,44.19,99,100,4.21
73,Caxito,AO,2021-07-19 15:47:29,-8.5785,13.6643,77.65,55,5,11.25
74,Kavaratti,IN,2021-07-19 15:47:29,10.5669,72.642,82.29,78,100,15.84
75,Izhma,RU,2021-07-19 15:47:29,65.0083,53.9113,78.06,35,22,12.73
76,Vila Franca Do Campo,PT,2021-07-19 15:47:30,37.7167,-25.4333,72.01,78,94,12.8
77,Maldonado,UY,2021-07-19 15:44:26,-34.6667,-54.9167,49.39,67,73,14.18
78,Geilo,NO,2021-07-19 15:47:30,60.5333,8.2076,70.18,53,97,12.41
79,Wukari,NG,2021-07-19 15:47:30,7.85,9.7833,82.36,74,78,7.45
80,Clyde River,CA,2021-07-19 15:43:56,70.4692,-68.5914,43.03,56,90,6.91
81,Altay,CN,2021-07-19 15:47:31,47.8667,88.1167,67.05,35,0,6.44
82,Ongandjera,NA,2021-07-19 15:47:31,-17.8833,15.0667,74.91,23,1,7.18
83,Cartagena,CO,2021-07-19 15:44:25,10.3997,-75.5144,89.22,70,0,4.61
84,Satellite Beach,US,2021-07-19 15:47:31,28.1761,-80.5901,92.08,66,1,6.91
85,Weligama,LK,2021-07-19 15:47:32,5.9667,80.4167,80.31,84,97,12.95
86,Kondinskoye,RU,2021-07-19 15:47:32,59.6481,67.41,64.81,82,40,7.09
87,Chuy,UY,2021-07-19 15:47:32,-33.6971,-53.4616,51.96,74,100,13.35
88,San Carlos,VE,2021-07-19 15:47:33,9.6612,-68.5827,78.93,89,28,4.47
89,Cap Malheureux,MU,2021-07-19 15:47:33,-19.9842,57.6142,73.47,73,17,10.0
90,Barcelos,PT,2021-07-19 15:47:33,41.5388,-8.6151,79.92,61,3,9.01
91,Havre-Saint-Pierre,CA,2021-07-19 15:47:34,50.2334,-63.5986,73.76,60,1,4.61
92,Sorata,BO,2021-07-19 15:47:34,-15.7667,-68.6333,45.45,82,77,6.71
93,Jacareacanga,BR,2021-07-19 15:47:35,-6.2222,-57.7528,94.96,28,28,3.22
94,Ambilobe,MG,2021-07-19 15:47:35,-13.2,49.05,75.51,62,92,6.29
95,Sambava,MG,2021-07-19 15:47:35,-14.2667,50.1667,72.28,83,100,8.75
96,Margate,GB,2021-07-19 15:47:35,51.3813,1.3862,82.18,79,11,11.79
97,Areosa,PT,2021-07-19 15:47:36,41.7178,-8.8571,80.31,76,7,10.65
98,Saint-Joseph,RE,2021-07-19 15:47:36,-21.3667,55.6167,70.16,79,22,17.09
99,Cockburn Town,TC,2021-07-19 15:47:36,21.4612,-71.1419,87.76,70,40,13.8
100,Hambantota,LK,2021-07-19 15:47:37,6.1241,81.1185,82.74,78,20,8.05
101,Kulhudhuffushi,MV,2021-07-19 15:47:37,6.6221,73.07,83.03,75,100,12.03
102,Salalah,OM,2021-07-19 15:46:13,17.0151,54.0924,78.89,89,90,9.22
103,Mangrol,IN,2021-07-19 15:47:37,21.1167,70.1167,83.19,80,100,21.56
104,Quelimane,MZ,2021-07-19 15:47:38,-17.8786,36.8883,73.35,78,20,8.01
105,Fomboni,KM,2021-07-19 15:47:38,-12.28,43.7425,77.43,71,20,15.3
106,Sao Joao Da Barra,BR,2021-07-19 15:47:38,-21.6403,-41.0511,71.69,72,100,11.12
107,Yurga,RU,2021-07-19 15:47:39,55.7231,84.8861,57.0,83,52,2.13
108,San Rafael,AR,2021-07-19 15:42:47,-34.6177,-68.3301,59.83,14,0,4.9
109,Mahanoro,MG,2021-07-19 15:47:39,-19.9,48.8,68.58,91,100,3.18
110,Sesheke,ZM,2021-07-19 15:47:39,-17.4759,24.2968,66.22,27,0,4.41
111,Touros,BR,2021-07-19 15:47:40,-5.1989,-35.4608,83.3,64,42,15.3
112,Kajaani,FI,2021-07-19 15:47:40,64.2273,27.7285,60.85,55,0,14.97
113,Mar Del Plata,AR,2021-07-19 15:47:40,-38.0023,-57.5575,54.0,67,0,5.99
114,Dudinka,RU,2021-07-19 15:47:41,69.4058,86.1778,51.03,66,100,5.08
115,Khambhat,IN,2021-07-19 15:47:41,22.3,72.6167,82.76,64,100,18.25
116,Porto De Moz,BR,2021-07-19 15:47:41,-1.7483,-52.2383,91.62,48,3,2.93
117,Aquiraz,BR,2021-07-19 15:47:42,-3.9014,-38.3911,87.22,55,22,11.79
118,Upernavik,GL,2021-07-19 15:47:42,72.7868,-56.1549,39.88,84,100,8.46
119,Skeldon,GY,2021-07-19 15:47:42,5.8833,-57.1333,87.75,58,2,5.14
120,Edd,ER,2021-07-19 15:47:43,13.9297,41.6925,90.64,67,82,8.32
121,Campoverde,PE,2021-07-19 15:47:43,-8.4753,-74.8058,74.89,97,100,6.2
122,Oranjemund,NA,2021-07-19 15:47:43,-28.55,16.4333,58.28,83,21,12.64
123,Roquetas De Mar,ES,2021-07-19 15:47:43,36.7642,-2.6148,80.6,78,1,4.72
124,Snezhnogorsk,RU,2021-07-19 15:47:44,69.1933,33.2531,56.98,66,79,16.96
125,Beruwala,LK,2021-07-19 15:47:44,6.4788,79.9828,80.73,84,97,11.77
126,Ponta Do Sol,PT,2021-07-19 15:47:44,32.6667,-17.1,75.83,77,2,3.94
127,Banposh,IN,2021-07-19 15:47:45,22.25,84.8,85.86,70,100,4.23
128,Bubaque,GW,2021-07-19 15:47:45,11.2833,-15.8333,80.24,82,100,5.66
129,Talca,CL,2021-07-19 15:47:45,-35.4333,-71.6667,52.16,48,32,4.72
130,Anloga,GH,2021-07-19 15:47:46,5.7947,0.8973,80.82,83,99,15.93
131,Kaman,IN,2021-07-19 15:47:47,27.65,77.2667,81.25,83,100,3.09
132,Araure,VE,2021-07-19 15:47:47,9.5601,-69.2148,89.15,87,32,5.77
133,Calama,CL,2021-07-19 15:47:48,-22.4667,-68.9333,64.89,5,90,8.05
134,Vestmannaeyjar,IS,2021-07-19 15:47:48,63.4427,-20.2734,52.79,87,90,20.71
135,Klaksvik,FO,2021-07-19 15:47:48,62.2266,-6.589,54.52,90,91,19.24
136,Saint-Philippe,RE,2021-07-19 15:47:49,-21.3585,55.7679,71.15,82,41,17.31
137,Sulina,RO,2021-07-19 15:47:49,45.1559,29.6536,85.23,56,8,8.32
138,Takaungu,KE,2021-07-19 15:47:49,-3.6837,39.8566,80.69,80,31,16.62
139,Tutoia,BR,2021-07-19 15:47:50,-2.7619,-42.2744,87.78,62,42,11.21
140,Walvis Bay,NA,2021-07-19 15:47:50,-22.9575,14.5053,67.08,55,11,2.51
141,Iralaya,HN,2021-07-19 15:47:50,15.0,-83.2333,86.09,84,86,17.4
142,Schmalkalden,DE,2021-07-19 15:47:51,50.7167,10.45,71.04,61,23,7.45
143,Vardo,NO,2021-07-19 15:47:51,70.3705,31.1107,48.4,76,75,8.05
144,Carnarvon,AU,2021-07-19 15:44:17,-24.8667,113.6333,55.47,58,4,6.91
145,Morgaushi,RU,2021-07-19 15:47:51,55.9643,46.7743,84.36,80,55,13.04
146,Tiznit,MA,2021-07-19 15:47:52,29.5833,-9.5,93.11,15,0,9.35
147,Nisia Floresta,BR,2021-07-19 15:47:52,-6.0911,-35.2086,86.38,61,58,13.13
148,Castro,BR,2021-07-19 15:47:52,-24.7911,-50.0119,51.69,44,1,9.08
149,Azangaro,PE,2021-07-19 15:44:54,-14.9167,-70.2167,49.73,43,100,4.59
150,Minsk,BY,2021-07-19 15:47:53,53.9,27.5667,76.75,66,77,6.85
151,Saint-Georges,GD,2021-07-19 15:47:53,12.0564,-61.7485,85.68,74,40,23.02
152,Asyut,EG,2021-07-19 15:47:53,27.181,31.1837,105.98,11,0,13.0
153,Inhambane,MZ,2021-07-19 15:47:54,-23.865,35.3833,66.85,85,31,6.62
154,Danilov,RU,2021-07-19 15:47:54,58.1908,40.1717,71.98,68,90,4.56
155,Lucea,JM,2021-07-19 15:47:54,18.451,-78.1736,88.86,69,38,15.9
156,Bengkulu,ID,2021-07-19 15:47:55,-3.8004,102.2655,76.39,89,99,6.38
157,Vagur,FO,2021-07-19 15:47:55,61.4732,-6.8119,50.77,90,96,12.71
158,Bhachau,IN,2021-07-19 15:47:55,23.2833,70.35,84.58,72,100,21.03
159,Micheweni,TZ,2021-07-19 15:47:55,-4.9667,39.8333,76.55,77,59,15.75
160,Tres Arroyos,AR,2021-07-19 15:47:56,-38.3739,-60.2798,54.34,32,43,12.5
161,Hamilton,US,2021-07-19 15:47:56,39.1834,-84.5333,83.21,61,1,1.01
162,Puerto Del Rosario,ES,2021-07-19 15:47:56,28.5004,-13.8627,87.48,54,0,18.41
163,Swellendam,ZA,2021-07-19 15:47:57,-34.0226,20.4417,55.78,94,82,6.78
164,Nyimba,ZM,2021-07-19 15:47:57,-14.5566,30.8149,69.64,35,21,0.4
165,Saint-Hyacinthe,CA,2021-07-19 15:45:48,45.6168,-72.9491,83.82,69,100,5.41
166,Olinda,BR,2021-07-19 15:47:58,-8.0089,-34.8553,73.13,88,90,11.5
167,Mookane,BW,2021-07-19 15:47:58,-23.688,26.6595,58.39,34,1,4.38
168,Vasilyevskiy Mokh,RU,2021-07-19 15:47:58,57.0132,35.919,73.58,60,100,7.25
169,Tombouctou,ML,2021-07-19 15:47:58,20.0,-3.0,115.72,6,71,4.41
170,Kaabong,UG,2021-07-19 15:47:59,3.4836,34.1492,64.67,74,98,2.66
171,Saldanha,ZA,2021-07-19 15:47:59,-33.0117,17.9442,60.85,83,95,22.19
172,Great Yarmouth,GB,2021-07-19 15:47:59,52.6083,1.7305,79.34,78,33,10.13
173,Laguna,US,2021-07-19 15:45:58,38.421,-121.4238,90.09,48,1,1.99
174,Taoudenni,ML,2021-07-19 15:48:00,22.6783,-3.9836,119.32,4,66,4.27
175,Barranca,PE,2021-07-19 15:48:00,-10.75,-77.7667,65.34,73,84,8.55
176,Pauini,BR,2021-07-19 15:48:00,-7.7136,-66.9764,85.35,39,1,6.53
177,Bangassou,CF,2021-07-19 15:48:01,4.7413,22.8184,72.97,92,88,1.92
178,Kasongo-Lunda,CD,2021-07-19 15:48:01,-6.4667,16.8167,91.42,16,5,4.25
179,Sabya,SA,2021-07-19 15:48:01,17.1495,42.6254,92.82,52,99,22.91
180,Sao Luiz Gonzaga,BR,2021-07-19 15:48:02,-28.4083,-54.9608,52.27,58,5,6.02
181,Bhuj,IN,2021-07-19 15:48:02,23.2667,69.6667,82.98,76,100,23.55
182,Acarau,BR,2021-07-19 15:48:02,-2.8856,-40.12,86.61,59,22,16.11
183,Alekseyevskoye,RU,2021-07-19 15:48:03,55.3071,50.1135,86.68,49,53,0.85
184,Gweta,BW,2021-07-19 15:48:03,-20.1833,25.2333,62.35,26,0,8.66
185,Indergarh,IN,2021-07-19 15:48:03,26.9352,79.6724,81.81,78,100,6.58
186,Ileza,RU,2021-07-19 15:48:04,61.0533,43.9002,62.51,95,54,15.28
187,Tonantins,BR,2021-07-19 15:48:04,-2.8731,-67.8022,87.73,56,81,3.89
188,Atasu,KZ,2021-07-19 15:48:04,48.6814,71.6433,78.51,34,17,9.17
189,Gashua,NG,2021-07-19 15:48:05,12.871,11.0482,91.06,38,39,12.12
190,Vitry-Le-Francois,FR,2021-07-19 15:48:05,48.7333,4.5833,86.13,70,0,11.43
191,Eyl,SO,2021-07-19 15:48:05,7.9803,49.8164,78.42,75,100,25.88
192,Mehamn,NO,2021-07-19 15:48:06,71.0357,27.8492,53.55,54,20,8.05
193,Cherdyn,RU,2021-07-19 15:48:06,60.403,56.4787,69.82,60,4,4.88
194,Bayir,TR,2021-07-19 15:48:06,37.2687,28.2167,83.23,35,0,7.58
195,Raudeberg,NO,2021-07-19 15:48:07,61.9875,5.1352,60.4,80,100,18.1
196,Nosy Varika,MG,2021-07-19 15:48:07,-20.5833,48.5333,68.74,89,94,4.05
197,Djambala,CG,2021-07-19 15:48:07,-2.5447,14.7533,86.52,29,57,7.14
198,Gravdal,NO,2021-07-19 15:48:08,68.1214,13.5031,51.48,76,75,16.11
199,Kindu,CD,2021-07-19 15:48:08,-2.95,25.95,86.59,30,4,1.25
200,Krasnogorodsk,RU,2021-07-19 15:48:08,56.8357,28.2822,73.76,42,23,6.24
201,Slubice,PL,2021-07-19 15:48:09,52.3509,14.5607,70.48,54,62,5.99
202,Camopi,GF,2021-07-19 15:48:09,3.1655,-52.3158,88.36,52,82,1.9
203,Dingle,PH,2021-07-19 15:48:09,10.9995,122.6711,77.45,89,100,7.2
204,Chipata,ZM,2021-07-19 15:48:10,-13.6333,32.65,65.35,42,76,6.2
205,Lethem,GY,2021-07-19 15:48:10,3.3803,-59.7968,88.38,57,7,2.82
206,Henties Bay,NA,2021-07-19 15:48:10,-22.116,14.2845,66.85,65,2,4.76
207,Marsa Matruh,EG,2021-07-19 15:48:11,31.3525,27.2453,84.4,70,0,16.11
208,Ilo,PE,2021-07-19 15:48:11,-17.6394,-71.3375,59.86,82,0,13.8
209,Staryy Nadym,RU,2021-07-19 15:48:11,65.6118,72.6842,60.15,63,6,7.07
210,Hofn,IS,2021-07-19 15:48:12,64.2539,-15.2082,59.02,67,20,4.61
211,Isiro,CD,2021-07-19 15:48:12,2.7739,27.616,68.63,97,100,1.28
212,Los Llanos De Aridane,ES,2021-07-19 15:48:12,28.6585,-17.9182,71.35,73,75,16.11
213,Magaria,NE,2021-07-19 15:48:13,12.9983,8.9099,95.4,32,42,6.29
214,Ilembula,TZ,2021-07-19 15:48:13,-8.9,34.5833,61.95,51,12,8.16
215,Qaqortoq,GL,2021-07-19 15:48:14,60.7167,-46.0333,52.3,99,100,3.56
216,Sisimiut,GL,2021-07-19 15:48:14,66.9395,-53.6735,43.5,90,100,18.52
217,Moerdijk,NL,2021-07-19 15:48:14,51.7034,4.6259,79.02,59,88,1.99
218,Riyadh,SA,2021-07-19 15:47:27,24.6877,46.7219,104.14,23,22,15.46
219,Nouakchott,MR,2021-07-19 15:48:15,18.0858,-15.9785,80.53,77,77,17.25
220,Nefteyugansk,RU,2021-07-19 15:48:15,61.0998,72.6035,70.05,80,80,6.38
221,Kolyubakino,RU,2021-07-19 15:48:17,55.668,36.5323,78.89,62,100,4.32
222,Chapais,CA,2021-07-19 15:48:17,49.7834,-74.8492,64.18,43,39,7.52
223,Mashhad,IR,2021-07-19 15:48:17,36.297,59.6062,87.94,23,0,13.8
224,Amapa,BR,2021-07-19 15:48:17,1.0,-52.0,92.03,45,0,2.01
225,Morros,BR,2021-07-19 15:48:18,-9.4467,-46.3003,94.84,16,1,6.91
226,Mattawa,US,2021-07-19 15:48:18,46.7379,-119.9028,79.36,27,3,2.66
227,Resistencia,AR,2021-07-19 15:48:18,-27.4606,-58.9839,58.05,37,0,5.75
228,Harbour Breton,CA,2021-07-19 15:48:19,47.4833,-55.7983,62.56,68,100,7.02
229,Bushehr,IR,2021-07-19 15:48:19,28.9684,50.8385,96.89,56,20,9.22
230,Saint Anthony,US,2021-07-19 15:47:50,45.0205,-93.218,84.34,54,1,1.99
231,Sarab,IR,2021-07-19 15:48:20,38.6066,44.9883,91.38,23,3,4.52
232,Olafsvik,IS,2021-07-19 15:48:20,64.8945,-23.7142,52.3,85,91,8.34
233,Zlotoryja,PL,2021-07-19 15:46:10,51.1264,15.9198,67.17,54,73,4.99
234,Vestmanna,FO,2021-07-19 15:48:20,62.1564,-7.1664,52.72,94,90,17.27
235,Allentown,US,2021-07-19 15:44:31,40.6084,-75.4902,84.22,65,40,11.5
236,Codrington,AU,2021-07-19 15:48:21,-38.2667,141.9667,51.87,87,97,16.33
237,Fort-Shevchenko,KZ,2021-07-19 15:48:21,44.5086,50.263,85.91,48,0,9.71
238,Puerto Carreno,CO,2021-07-19 15:48:20,6.189,-67.4859,73.65,93,100,4.88
239,Ugra,RU,2021-07-19 15:48:22,54.7777,34.3267,66.76,94,100,4.83
240,Berea,US,2021-07-19 15:47:46,41.3662,-81.8543,81.75,71,20,1.99
241,Barkot,IN,2021-07-19 15:48:22,30.8167,78.2,70.07,97,100,2.84
242,Sinnamary,GF,2021-07-19 15:48:22,5.3833,-52.95,81.61,78,51,5.99
243,Amarpatan,IN,2021-07-19 15:48:23,24.3167,80.9833,85.59,64,99,8.19
244,Sao Filipe,CV,2021-07-19 15:48:23,14.8961,-24.4956,75.54,83,24,8.16
245,Ostrovnoy,RU,2021-07-19 15:48:23,68.0531,39.5131,52.0,79,100,10.38
246,Kuznechikha,RU,2021-07-19 15:48:24,57.2161,42.3348,78.87,52,100,7.36
247,Svetlyy,RU,2021-07-19 15:48:24,54.675,20.1347,71.65,64,1,11.59
248,Joaima,BR,2021-07-19 15:48:24,-16.6542,-41.0306,93.92,24,0,2.39
249,Aktash,RU,2021-07-19 15:48:25,50.3,87.7333,42.96,90,67,1.95
250,Saint George,US,2021-07-19 15:48:25,37.1041,-113.5841,86.47,57,1,0.0
251,Cordoba,AR,2021-07-19 15:45:20,-31.4135,-64.1811,64.42,22,0,3.0
252,Grindavik,IS,2021-07-19 15:48:25,63.8424,-22.4338,55.56,93,75,8.05
253,Ballitoville,ZA,2021-07-19 15:48:26,-29.539,31.2144,66.34,63,0,11.5
254,Camacha,PT,2021-07-19 15:48:26,33.0833,-16.3333,72.36,64,75,12.66
255,Mabaruma,GY,2021-07-19 15:48:26,8.2,-59.7833,79.95,89,95,5.41
256,Narsaq,GL,2021-07-19 15:48:27,60.9167,-46.05,52.02,99,100,5.19
257,Lamu,KE,2021-07-19 15:48:27,-2.2717,40.902,79.02,79,55,17.78
258,Presidencia Roque Saenz Pena,AR,2021-07-19 15:48:27,-26.7852,-60.4388,61.2,20,46,3.71
259,Ambikapur,IN,2021-07-19 15:48:28,23.1167,83.2,82.71,66,100,2.39
260,Chicama,PE,2021-07-19 15:48:28,-7.8447,-79.1469,63.14,65,40,7.18
261,Abu Kamal,SY,2021-07-19 15:48:28,34.4506,40.9171,107.91,8,0,14.99
262,Lagoa,PT,2021-07-19 15:48:29,39.05,-27.9833,69.31,87,92,20.38
263,Chama,CH,2021-07-19 15:48:29,47.1821,8.4636,83.05,47,1,4.61
264,Mayumba,GA,2021-07-19 15:48:29,-3.432,10.6554,74.71,78,54,9.15
265,Turukhansk,RU,2021-07-19 15:48:30,65.8167,87.9833,52.77,74,6,9.46
266,Jocotan,GT,2021-07-19 15:48:30,14.8167,-89.3833,81.23,71,95,5.28
267,Sochi,RU,2021-07-19 15:48:30,43.6,39.7303,86.09,77,0,7.27
268,Ugoofaaru,MV,2021-07-19 15:48:31,5.6667,73.0,83.39,72,64,11.36
269,Castrillon,ES,2021-07-19 15:48:31,43.3979,-6.7922,87.21,46,0,6.73
270,Ancud,CL,2021-07-19 15:48:31,-41.8697,-73.8203,49.53,96,100,7.63
271,Borujerd,IR,2021-07-19 15:48:31,33.8973,48.7516,85.23,24,27,8.1
272,Sawakin,SD,2021-07-19 15:48:32,19.1059,37.3321,93.09,45,100,15.99
273,Monduli,TZ,2021-07-19 15:48:32,-3.3,36.45,69.96,47,28,7.65
274,Illapel,CL,2021-07-19 15:48:32,-31.6308,-71.1653,73.81,13,0,2.62
275,Tanout,NE,2021-07-19 15:48:33,14.9709,8.8879,97.43,27,53,9.8
276,Sarkand,KZ,2021-07-19 15:48:33,45.41,79.9186,75.13,24,83,7.54
277,Playas,EC,2021-07-19 15:48:33,-2.6333,-80.3833,74.84,76,35,7.92
278,Janow Lubelski,PL,2021-07-19 15:48:34,50.707,22.4104,78.62,59,94,7.94
279,Namibe,AO,2021-07-19 15:48:34,-15.1961,12.1522,68.68,83,20,10.54
280,Labytnangi,RU,2021-07-19 15:48:34,66.6572,66.4183,65.98,60,95,5.39
281,Kadyy,RU,2021-07-19 15:48:35,57.787,43.1903,77.16,68,94,3.78
282,Nkayi,CG,2021-07-19 15:48:35,-4.1841,13.2884,91.33,34,77,7.96
283,Sosenskiy,RU,2021-07-19 15:48:35,54.059,35.9623,71.31,96,65,11.34
284,San Jorge,AR,2021-07-19 15:48:35,-31.8962,-61.8598,59.0,34,0,5.7
285,Colares,PT,2021-07-19 15:48:36,38.7992,-9.4469,74.88,66,75,8.01
286,Liwale,TZ,2021-07-19 15:48:36,-9.7667,37.9333,73.92,44,65,6.49
287,Ust-Kulom,RU,2021-07-19 15:48:36,61.6864,53.6902,70.92,53,14,3.96
288,Sayyan,YE,2021-07-19 15:48:37,15.1718,44.3244,65.57,50,100,12.06
289,Westport,US,2021-07-19 15:48:37,41.1415,-73.3579,77.77,75,90,1.01
290,Lake Park,US,2021-07-19 15:48:37,26.8003,-80.0664,91.02,74,40,4.0
291,Marathon,US,2021-07-19 15:48:38,44.9,-89.7668,77.99,71,1,5.75
292,Cidreira,BR,2021-07-19 15:48:38,-30.1811,-50.2056,53.51,68,61,21.52
293,Noyabrsk,RU,2021-07-19 15:48:38,63.1994,75.4507,62.94,69,63,5.97
294,Inirida,CO,2021-07-19 15:48:39,3.8653,-67.9239,78.55,82,99,4.03
295,Kidal,ML,2021-07-19 15:48:39,18.4411,1.4078,109.53,11,99,3.49
296,Agirish,RU,2021-07-19 15:48:39,61.9247,63.0231,68.13,56,34,4.65
297,Sept-Iles,CA,2021-07-19 15:48:40,50.2001,-66.3821,70.05,74,75,7.0
298,Aripuana,BR,2021-07-19 15:48:40,-9.1667,-60.6333,86.59,36,0,5.75
299,Forestville,US,2021-07-19 15:48:40,38.8451,-76.875,85.05,58,40,4.61
300,Elizabeth City,US,2021-07-19 15:48:40,36.2946,-76.2511,77.02,91,90,3.0
301,Harper,LR,2021-07-19 15:48:41,4.375,-7.7169,79.0,69,45,11.07
302,Muli,MV,2021-07-19 15:48:41,2.9167,73.5667,83.5,71,83,8.68
303,Krasnoselkup,RU,2021-07-19 15:48:41,65.7,82.4667,54.18,63,32,5.82
304,Clarence Town,AU,2021-07-19 15:48:42,-32.5833,151.7833,52.61,70,75,8.05
305,Pokhara,NP,2021-07-19 15:48:42,28.2333,83.9833,72.82,92,100,2.62
306,Iskateley,RU,2021-07-19 15:48:43,67.6803,53.1512,57.04,94,100,5.19
307,Mandera,KE,2021-07-19 15:48:43,3.9366,41.867,84.4,40,91,13.09
308,Tananger,NO,2021-07-19 15:48:43,58.9333,5.6,62.22,56,20,19.57
309,Ginir,ET,2021-07-19 15:48:43,7.1333,40.7,63.01,66,86,12.3
310,Solvychegodsk,RU,2021-07-19 15:48:44,61.3305,46.9156,74.37,54,81,8.25
311,Burgeo,CA,2021-07-19 15:45:05,47.6167,-57.6152,63.73,74,100,5.1
312,Kaniama,CD,2021-07-19 15:48:44,-7.5667,24.1833,80.4,25,16,2.55
313,Thompson,CA,2021-07-19 15:48:44,55.7435,-97.8558,59.16,67,40,3.44
314,Key West,US,2021-07-19 15:48:45,24.5557,-81.7826,88.0,70,40,10.36
315,Khokhlovo,RU,2021-07-19 15:48:45,59.1492,37.3998,75.22,45,99,8.66
316,Maun,BW,2021-07-19 15:48:45,-19.9833,23.4167,71.56,24,0,5.75
317,San Matias,BO,2021-07-19 15:48:46,-16.3667,-58.4,73.51,14,70,8.79
318,Ilulissat,GL,2021-07-19 15:48:46,69.2167,-51.1,48.22,81,75,11.5
319,Cabras,IT,2021-07-19 15:48:46,39.93,8.5314,80.91,57,16,11.25
320,Waslala,NI,2021-07-19 15:48:47,13.2333,-85.3833,80.94,57,97,7.58
321,Totma,RU,2021-07-19 15:48:47,59.9747,42.7642,67.44,90,91,9.06
322,Cabedelo,BR,2021-07-19 15:48:48,-6.9811,-34.8339,79.47,74,23,14.41
323,Kisanga,TZ,2021-07-19 15:48:48,-7.4362,37.7034,75.81,44,5,1.86
324,Buchanan,LR,2021-07-19 15:48:48,5.8808,-10.0467,80.56,77,84,12.44
325,Bodden Town,KY,2021-07-19 15:48:49,19.2833,-81.25,89.01,77,20,1.99
326,Hvolsvollur,IS,2021-07-19 15:48:49,63.7533,-20.2243,60.82,71,77,9.62
327,Angoche,MZ,2021-07-19 15:48:49,-16.2325,39.9086,71.35,78,9,9.22
328,Maarianhamina,AX,2021-07-19 15:48:50,60.0973,19.9348,64.26,48,0,11.5
329,Viransehir,TR,2021-07-19 15:48:50,37.2353,39.7631,102.7,6,0,11.05
330,Aswan,EG,2021-07-19 15:44:27,24.0934,32.907,105.1,24,4,9.22
331,Knysna,ZA,2021-07-19 15:48:50,-34.0363,23.0471,61.18,88,77,7.07
332,Rio Grande,BR,2021-07-19 15:48:51,-32.035,-52.0986,53.71,68,88,21.99
333,Bilma,NE,2021-07-19 15:48:51,18.6853,12.9164,105.49,13,28,1.45
334,Richards Bay,ZA,2021-07-19 15:48:51,-28.783,32.0377,63.86,65,0,13.11
335,Port Blair,IN,2021-07-19 15:48:52,11.6667,92.75,81.41,85,100,18.7
336,San Agustin,MX,2021-07-19 15:48:52,20.5333,-103.4667,70.32,80,54,4.5
337,Avanigadda,IN,2021-07-19 15:48:52,16.0215,80.9181,86.14,62,87,13.53
338,Chapleau,CA,2021-07-19 15:48:53,47.8405,-83.4034,77.09,57,75,9.22
339,Dawlatabad,AF,2021-07-19 15:48:53,36.4141,64.9053,89.26,11,0,6.6
340,Adamovka,RU,2021-07-19 15:48:53,51.5223,59.9396,73.06,55,49,9.31
341,Mogadouro,PT,2021-07-19 15:48:54,41.3403,-6.7119,95.79,14,0,8.7
342,Ponta Delgada,PT,2021-07-19 15:48:54,37.7333,-25.6667,72.32,83,40,13.8
343,Grand Gaube,MU,2021-07-19 15:48:54,-20.0064,57.6608,73.38,73,21,10.0
344,Nieuw Amsterdam,SR,2021-07-19 15:48:55,5.8833,-55.0833,91.02,68,40,4.61
345,Portsmouth,GB,2021-07-19 15:48:55,50.799,-1.0913,89.13,71,7,6.67
346,Aurad,IN,2021-07-19 15:48:55,18.25,77.4333,76.75,81,100,17.72
347,Koshki,RU,2021-07-19 15:48:55,54.2091,50.4677,81.95,43,70,7.38
348,Lisala,CD,2021-07-19 15:48:56,2.15,21.5167,84.96,48,39,1.03
349,Vetluzhskiy,RU,2021-07-19 15:48:56,58.3902,45.4654,72.18,85,76,2.33
350,Marzuq,YE,2021-07-19 15:48:57,14.4,46.4667,81.77,56,83,9.8
351,Husavik,IS,2021-07-19 15:48:57,66.0449,-17.3389,53.51,83,73,8.97
352,Bereda,ES,2021-07-19 15:48:57,43.2686,-7.5406,89.42,55,0,7.0
353,Kokstad,ZA,2021-07-19 15:48:57,-30.5472,29.4241,50.43,31,0,2.86
354,Carutapera,BR,2021-07-19 15:48:58,-1.195,-46.02,82.98,79,32,5.53
355,Jumla,NP,2021-07-19 15:48:58,29.2747,82.1838,63.32,97,100,0.67
356,Morant Bay,JM,2021-07-19 15:48:58,17.8815,-76.4093,90.63,70,14,13.73
357,Tapes,BR,2021-07-19 15:48:59,-30.6733,-51.3958,55.53,61,48,16.02
358,Cape Canaveral,US,2021-07-19 15:48:59,28.4058,-80.6048,92.07,66,1,11.5
359,Murdochville,CA,2021-07-19 15:48:59,48.9583,-65.5006,61.68,44,100,6.33
360,Brae,GB,2021-07-19 15:49:00,60.3964,-1.353,55.31,96,99,13.44
361,Rockland,US,2021-07-19 15:46:07,41.1668,-74.0496,77.72,81,100,4.34
362,Tobane,BW,2021-07-19 15:49:00,-21.95,27.9,63.12,48,75,8.05
363,Coracora,PE,2021-07-19 15:49:00,-15.0333,-73.7833,62.83,30,69,1.34
364,Moose Factory,CA,2021-07-19 15:49:01,51.2585,-80.6094,48.2,93,90,5.75
365,Najran,SA,2021-07-19 15:49:01,17.4924,44.1277,90.25,43,100,11.54
366,Bonthe,SL,2021-07-19 15:49:01,7.5264,-12.505,81.21,77,69,9.17
367,Matara,LK,2021-07-19 15:49:02,5.9485,80.5353,80.17,84,97,13.02
368,Le Vauclin,MQ,2021-07-19 15:49:02,14.5452,-60.8388,86.85,70,75,20.71
369,Barsovo,RU,2021-07-19 15:49:02,61.1667,73.1667,69.93,86,72,5.86
370,Caravelas,BR,2021-07-19 15:49:03,-17.7125,-39.2481,82.15,56,2,9.89
371,Leh,IN,2021-07-19 15:49:03,34.1667,77.5833,67.28,42,94,5.48
372,Peoria,US,2021-07-19 15:46:47,40.7667,-89.7668,81.46,69,1,4.61
373,Tampa,US,2021-07-19 15:49:04,27.9475,-82.4584,92.07,70,90,5.75
374,Vondrozo,MG,2021-07-19 15:49:04,-22.8167,47.2833,59.77,97,12,2.26
375,Longyearbyen,SJ,2021-07-19 15:49:04,78.2186,15.6401,44.44,70,75,6.91
376,Jalingo,NG,2021-07-19 15:49:05,8.8833,11.3667,82.62,70,88,5.88
377,San Cristobal,VE,2021-07-19 15:49:05,7.7669,-72.225,77.18,68,40,8.32
378,Jauharabad,PK,2021-07-19 15:49:05,32.2898,72.2813,94.71,50,86,22.24
379,Chalinze,TZ,2021-07-19 15:49:06,-6.6378,38.354,74.53,48,6,0.58
380,Qasigiannguit,GL,2021-07-19 15:49:06,68.8193,-51.1922,48.45,81,100,3.02
381,Parrita,CR,2021-07-19 15:49:06,9.5201,-84.3225,92.98,65,87,3.22
382,Ercis,TR,2021-07-19 15:49:07,39.0287,43.3586,83.8,29,13,3.58
383,Kotma,IN,2021-07-19 15:49:07,23.2,81.9667,78.93,81,100,5.68
384,Alenquer,BR,2021-07-19 15:49:07,-1.9417,-54.7383,86.34,43,0,2.68
385,Huntsville,US,2021-07-19 15:49:08,34.7304,-86.5861,76.53,97,90,1.01
386,Virginia Beach,US,2021-07-19 15:49:08,36.8529,-75.978,79.02,80,90,4.61
387,Yangambi,CD,2021-07-19 15:49:08,0.8102,24.4336,74.86,75,99,2.82
388,Miraflores,MX,2021-07-19 15:49:09,19.2167,-98.8083,66.02,53,4,1.92
389,Male,MV,2021-07-19 15:49:09,4.1748,73.5089,84.15,79,20,9.22
390,Balotra,IN,2021-07-19 15:49:09,25.8333,72.2333,88.86,63,100,21.3
391,Yalutorovsk,RU,2021-07-19 15:49:10,56.6536,66.3006,61.56,87,49,6.38
392,Seoni Malwa,IN,2021-07-19 15:49:10,22.45,77.4667,82.76,76,100,5.14
393,Mitsamiouli,KM,2021-07-19 15:49:10,-11.3847,43.2844,77.95,73,53,13.24
394,Santa Marta,CO,2021-07-19 15:49:11,11.2408,-74.199,90.34,71,56,9.84
395,Alakurtti,RU,2021-07-19 15:49:11,66.9672,30.3491,53.64,53,94,9.57
396,Aktau,KZ,2021-07-19 15:49:11,43.65,51.2,88.38,45,0,9.26
397,Buckeburg,DE,2021-07-19 15:49:12,52.2607,9.0494,69.87,59,90,6.91
398,Pyshma,RU,2021-07-19 15:49:12,56.9523,63.2513,68.95,67,98,5.19
399,Lyubech,UA,2021-07-19 15:49:12,51.7026,30.6569,76.69,69,94,7.9
400,Gazi,GR,2021-07-19 15:49:13,35.3253,25.0669,83.07,74,20,4.0
401,Liverpool,GB,2021-07-19 15:49:13,53.4106,-2.9779,89.55,58,40,4.0
402,Dubrovka,RU,2021-07-19 15:49:13,53.6907,33.5071,69.78,81,100,5.48
403,Progreso,MX,2021-07-19 15:49:14,21.2833,-89.6667,88.11,65,48,8.86
404,Tagab,AF,2021-07-19 15:49:14,34.855,69.6492,80.51,31,76,5.75
405,Paamiut,GL,2021-07-19 15:49:15,61.994,-49.6678,41.58,91,64,3.22
406,Coihaique,CL,2021-07-19 15:49:15,-45.5752,-72.0662,47.01,87,75,5.75
407,Vila Do Maio,CV,2021-07-19 15:49:15,15.1333,-23.2167,83.19,83,63,9.57
408,Mitu,CO,2021-07-19 15:44:18,1.1983,-70.1733,79.07,90,95,1.54
409,Bealanana,MG,2021-07-19 15:49:16,-14.55,48.7333,58.69,97,100,2.37
410,Luau,AO,2021-07-19 15:49:16,-10.7073,22.2247,74.98,24,54,3.09
411,Moshenskoye,RU,2021-07-19 15:49:16,58.5102,34.5911,72.28,44,63,8.23
412,Samana,DO,2021-07-19 15:45:10,19.2056,-69.3369,86.22,79,40,6.91
413,Beisfjord,NO,2021-07-19 15:49:17,68.3751,17.5988,50.25,86,100,12.5
414,Puerto Ayacucho,VE,2021-07-19 15:49:17,5.6639,-67.6236,73.4,95,100,1.95
415,Mutoko,ZW,2021-07-19 15:49:17,-17.397,32.2268,57.74,41,30,5.17
416,Blacksburg,US,2021-07-19 15:48:24,37.2296,-80.4139,76.33,76,90,5.75
417,Nara,JP,2021-07-19 15:49:18,34.6851,135.8049,80.91,94,10,0.72
418,Greece,US,2021-07-19 15:45:59,43.2098,-77.6931,81.86,77,20,5.01
419,Ovalle,CL,2021-07-19 15:49:18,-30.5983,-71.2003,72.19,20,0,2.62
420,Sakakah,SA,2021-07-19 15:49:19,29.9697,40.2064,112.57,9,37,1.43
421,Bondo,CD,2021-07-19 15:49:19,3.8146,23.6866,77.11,76,77,2.26
422,Muros,ES,2021-07-19 15:49:19,42.7762,-9.0603,84.7,69,48,8.16
423,Praia Da Vitoria,PT,2021-07-19 15:49:19,38.7333,-27.0667,79.05,61,75,12.5
424,Dhidhdhoo,MV,2021-07-19 15:49:20,6.8833,73.1,83.12,75,98,12.28
425,Lebyazhye,RU,2021-07-19 15:49:20,55.2689,66.4947,60.64,96,100,5.84
426,Puerto Narino,CO,2021-07-19 15:49:20,-3.7703,-70.3831,75.15,58,49,6.13
427,Tabas,IR,2021-07-19 15:49:21,33.5959,56.9244,98.08,12,0,9.84
428,Honningsvag,NO,2021-07-19 15:49:21,70.9821,25.9704,53.13,66,75,11.5
429,Bereznik,RU,2021-07-19 15:49:21,62.8551,42.7072,58.98,87,100,4.36
430,Sabzevar,IR,2021-07-19 15:49:22,36.2126,57.6819,96.08,16,20,13.8
431,Longido,TZ,2021-07-19 15:49:22,-2.7333,36.6833,71.53,41,59,10.47
432,Charleston,US,2021-07-19 15:45:27,32.7766,-79.9309,84.09,75,1,4.0
433,Opuwo,NA,2021-07-19 15:49:23,-18.0607,13.84,76.55,21,0,8.25
434,Yar-Sale,RU,2021-07-19 15:49:23,66.8333,70.8333,53.62,72,91,6.89
435,Krutinka,RU,2021-07-19 15:49:23,56.0055,71.5113,60.6,85,100,8.08
436,Jaciara,BR,2021-07-19 15:49:24,-15.9653,-54.9683,79.11,26,1,6.6
437,Montepuez,MZ,2021-07-19 15:49:24,-13.1256,38.9997,73.08,46,61,7.52
438,Panaba,MX,2021-07-19 15:49:24,21.2833,-88.2667,92.37,46,11,8.57
439,Dingli,MT,2021-07-19 15:49:24,35.8614,14.3822,80.76,57,20,11.5
440,Johnstown,US,2021-07-19 15:49:25,40.3267,-78.922,80.92,70,1,6.91
441,Makokou,GA,2021-07-19 15:49:25,0.5738,12.8642,79.14,78,90,2.33
442,Eenhana,NA,2021-07-19 15:49:25,-17.4667,16.3333,78.55,20,2,5.28
443,Abha,SA,2021-07-19 15:49:26,18.2164,42.5053,73.22,49,75,11.5
444,Mirabad,AF,2021-07-19 15:49:26,30.4362,61.8383,98.38,9,6,26.66
445,Mlandizi,TZ,2021-07-19 15:49:26,-6.7,38.7333,80.85,59,25,6.24
446,Yuksekova,TR,2021-07-19 15:49:27,37.5736,44.2872,84.83,27,72,6.29
447,Nantucket,US,2021-07-19 15:49:27,41.2835,-70.0995,77.11,84,90,11.5
448,Olden,NO,2021-07-19 15:49:27,61.8364,6.8064,66.16,55,100,6.13
449,Montceau-Les-Mines,FR,2021-07-19 15:49:28,46.6667,4.3667,85.12,58,0,8.9
450,Santiago Del Estero,AR,2021-07-19 15:49:28,-27.7951,-64.2615,56.8,20,94,10.8
451,Innellan,GB,2021-07-19 15:49:28,55.8919,-4.9616,78.69,60,15,4.0
452,Bundibugyo,UG,2021-07-19 15:49:29,0.7414,30.0417,72.45,74,94,1.23
453,Vangaindrano,MG,2021-07-19 15:49:29,-23.35,47.6,66.78,90,28,7.92
454,Barcelona,ES,2021-07-19 15:49:04,41.3888,2.159,98.35,51,0,5.01
455,Trofors,NO,2021-07-19 15:49:29,65.5333,13.4063,51.67,97,100,18.1
456,Damietta,EG,2021-07-19 15:49:30,31.4165,31.8133,85.89,65,0,14.47
457,Siddapur,IN,2021-07-19 15:49:30,14.3333,74.8833,70.29,94,99,7.94
458,Khor,RU,2021-07-19 15:49:30,47.8861,134.9464,70.27,75,84,5.26
459,Sechura,PE,2021-07-19 15:49:31,-5.5569,-80.8222,72.36,65,8,7.52
460,Sao Raimundo Nonato,BR,2021-07-19 15:49:31,-9.0153,-42.6994,95.4,22,0,6.6
461,Lodwar,KE,2021-07-19 15:49:31,3.1191,35.5973,86.77,38,92,8.61
462,Senanga,ZM,2021-07-19 15:49:32,-16.1167,23.2667,69.37,27,0,4.83
463,Boueni,YT,2021-07-19 15:49:32,-12.9025,45.0761,75.18,68,85,10.09
464,Rehoboth,NA,2021-07-19 15:49:32,-23.3167,17.0833,67.12,22,32,3.78
465,Neuquen,AR,2021-07-19 15:46:49,-38.9516,-68.0591,42.69,52,0,6.91
466,Mogadishu,SO,2021-07-19 15:49:33,2.0371,45.3438,76.87,82,37,19.22
467,Kyabe,TD,2021-07-19 15:49:33,9.4515,18.9449,78.58,72,100,4.25
468,Bandarbeyla,SO,2021-07-19 15:49:34,9.4942,50.8122,77.43,77,100,33.26
469,Kirriemuir,GB,2021-07-19 15:49:34,56.674,-3.0034,74.55,58,80,4.47
470,Japura,ID,2021-07-19 15:49:34,-0.3167,102.35,75.47,92,100,1.95
471,Rundu,NA,2021-07-19 15:49:35,-17.9333,19.7667,67.78,20,0,3.13
472,Nouna,BF,2021-07-19 15:49:35,12.7333,-3.8667,84.27,54,100,1.72
473,Omboue,GA,2021-07-19 15:49:35,-1.5746,9.2618,75.83,70,15,11.74
474,New Castle,US,2021-07-19 15:49:36,41.0037,-80.347,81.45,66,1,4.61
475,Sajanan,TN,2021-07-19 15:49:36,37.0573,9.2426,82.67,58,0,13.98
476,Ilongero,TZ,2021-07-19 15:49:36,-4.6667,34.8667,67.86,35,5,6.11
477,Shar,KZ,2021-07-19 15:49:37,49.5886,81.0453,70.7,59,26,13.29
478,Tabory,RU,2021-07-19 15:49:37,58.5198,64.5495,68.63,68,76,1.32
479,Pestravka,RU,2021-07-19 15:49:37,52.405,49.9583,81.72,53,40,2.46
480,Viedma,AR,2021-07-19 15:49:38,-40.8135,-62.9967,58.23,21,44,17.36
481,Bougouni,ML,2021-07-19 15:49:38,11.417,-7.479,97.68,31,71,6.17
482,Trebisacce,IT,2021-07-19 15:49:38,39.8708,16.5312,82.53,61,89,1.99
483,Talara,PE,2021-07-19 15:49:38,-4.5772,-81.2719,72.36,78,75,13.8
484,Stokmarknes,NO,2021-07-19 15:49:39,68.5646,14.9108,54.5,72,75,26.46
485,Calabozo,VE,2021-07-19 15:49:39,8.9242,-67.4293,82.56,75,67,6.91
486,La Rioja,ES,2021-07-19 15:49:39,42.25,-2.5,89.04,29,0,6.44
487,Sterlibashevo,RU,2021-07-19 15:49:40,53.4376,55.2578,75.6,50,47,2.33
488,Kalabo,ZM,2021-07-19 15:49:40,-14.97,22.6814,70.63,27,7,3.85
489,Deder,ET,2021-07-19 15:49:40,9.3167,41.45,58.59,74,40,7.52
490,Kirovsk,UA,2021-07-19 15:49:41,48.6375,38.6428,89.26,35,37,3.98
491,Derzhavinsk,KZ,2021-07-19 15:49:41,51.1,66.3167,66.51,71,51,7.72
492,Chiuza,RO,2021-07-19 15:49:41,47.2333,24.25,77.45,59,80,10.18
493,Manicore,BR,2021-07-19 15:49:42,-5.8092,-61.3003,92.48,34,32,4.9
494,Kayerkan,RU,2021-07-19 15:49:42,69.3497,87.7602,48.04,78,41,4.61
495,Blankenberge,BE,2021-07-19 15:49:42,51.3131,3.1323,78.96,73,3,11.95
496,Kismayo,SO,2021-07-19 15:48:28,-0.3582,42.5454,76.91,79,71,16.93
497,Santa Ana,US,2021-07-19 15:49:21,33.7456,-117.8678,89.4,70,40,1.99
498,Manta,EC,2021-07-19 15:47:49,-0.95,-80.7333,76.78,78,90,3.44
499,Rietavas,LT,2021-07-19 15:49:43,55.7194,21.9311,72.21,82,53,3.83
500,Adrar,MR,2021-07-19 15:49:43,20.5022,-10.0711,111.06,8,10,4.74
501,Monte Patria,CL,2021-07-19 15:49:44,-30.6919,-70.9467,74.16,10,0,2.28
502,Herat,AF,2021-07-19 15:49:44,34.5,62.0,86.59,13,0,19.84
503,Rabo De Peixe,PT,2021-07-19 15:49:44,37.8,-25.5833,71.11,83,40,13.8
504,Moundou,TD,2021-07-19 15:49:45,8.5667,16.0833,80.83,83,20,4.61
505,Port-Gentil,GA,2021-07-19 15:49:45,-0.7193,8.7815,80.56,69,40,12.66
506,Chilca,PE,2021-07-19 15:49:45,-12.5211,-76.7372,62.76,76,57,8.52
507,Gboko,NG,2021-07-19 15:49:46,7.3179,8.9951,81.36,73,97,9.31
508,Severodvinsk,RU,2021-07-19 15:49:46,64.5635,39.8302,62.71,64,35,4.16
509,Kargasok,RU,2021-07-19 15:49:46,59.0556,80.8572,56.39,82,21,4.43
510,Zambezi,ZM,2021-07-19 15:49:47,-13.5432,23.1047,70.54,28,31,1.9
511,Ajdabiya,LY,2021-07-19 15:49:47,30.7554,20.2263,82.45,53,0,12.28
512,Gardner,US,2021-07-19 15:49:47,42.5751,-71.9981,68.18,92,90,5.75
513,Hargeysa,SO,2021-07-19 15:49:48,9.56,44.065,74.52,51,80,24.9
514,Ihosy,MG,2021-07-19 15:49:48,-22.4,46.1167,61.97,76,25,10.0
515,Takoradi,GH,2021-07-19 15:49:48,4.8845,-1.7554,77.2,79,100,8.95
516,Warrington,GB,2021-07-19 15:45:56,53.3925,-2.5802,86.36,55,18,3.0
517,Havoysund,NO,2021-07-19 15:49:49,70.9963,24.6622,50.23,82,89,32.37
518,Lovozero,RU,2021-07-19 15:49:49,68.005,35.0117,56.01,58,91,6.44
519,Zhezkazgan,KZ,2021-07-19 15:49:50,47.8043,67.7144,87.87,21,31,3.83
520,Buenaventura,CO,2021-07-19 15:49:50,3.8801,-77.0312,78.91,66,14,2.98
521,Pyaozerskiy,RU,2021-07-19 15:49:50,65.8333,31.1667,59.56,63,92,8.46
522,Manaure,CO,2021-07-19 15:49:51,11.7751,-72.4445,90.07,51,1,24.32
523,Stornoway,GB,2021-07-19 15:49:51,58.2093,-6.3865,66.16,68,75,10.36
524,Tayirove,UA,2021-07-19 15:49:51,46.3631,30.6489,89.91,43,0,8.99
525,Diego De Almagro,CL,2021-07-19 15:49:52,-26.3667,-70.05,73.83,12,82,3.04
526,Saint-Pierre,RE,2021-07-19 15:49:52,-21.3393,55.4781,71.24,83,75,21.85
527,Jurado,CO,2021-07-19 15:49:53,7.1053,-77.7641,84.88,71,92,2.66
528,Shelburne,CA,2021-07-19 15:46:30,44.0787,-80.2041,80.85,48,0,9.15
529,Ballangen,NO,2021-07-19 15:49:53,68.3428,16.8315,50.4,81,75,11.5
530,Alekseyevskaya,RU,2021-07-19 15:49:53,50.2896,42.1845,80.69,53,55,9.08
531,Kumluca,TR,2021-07-19 15:49:54,36.3703,30.2869,84.92,50,0,8.46
532,Man,CI,2021-07-19 15:49:54,7.4125,-7.5538,79.5,90,74,0.85
533,Nizhniy Baskunchak,RU,2021-07-19 15:49:54,48.2198,46.8311,92.17,28,47,12.28
534,Faya,SA,2021-07-19 15:49:55,18.3851,42.4509,73.51,56,96,6.93
535,Puerto Baquerizo Moreno,EC,2021-07-19 15:49:55,-0.9,-89.6,76.19,83,75,16.11
536,Shalya,RU,2021-07-19 15:49:55,57.2471,58.7298,67.1,65,99,3.0
537,Ampanihy,MG,2021-07-19 15:49:56,-24.7,44.75,67.69,72,60,8.97
538,Agadez,NE,2021-07-19 15:49:56,19.75,10.25,105.85,10,100,9.62
539,Morococha,PE,2021-07-19 15:49:56,-11.5997,-76.1411,42.85,53,29,7.18
540,Comrie,GB,2021-07-19 15:49:57,56.3791,-3.9949,78.06,59,43,3.11
541,Kuryk,KZ,2021-07-19 15:49:57,43.2,51.65,88.41,39,0,12.93
542,Gorebridge,GB,2021-07-19 15:49:57,55.8459,-3.0456,77.18,55,98,3.76
543,Porto Novo,BJ,2021-07-19 15:49:58,6.4965,2.6036,82.22,76,100,11.25
544,Kharp,RU,2021-07-19 15:49:58,66.8014,65.8081,65.19,62,100,2.33
545,Buta,CD,2021-07-19 15:49:58,2.7858,24.73,72.1,83,100,1.43
546,Santa Isabel Do Rio Negro,BR,2021-07-19 15:49:58,-0.4139,-65.0192,92.68,43,44,4.23
547,Macroom,IE,2021-07-19 15:49:59,51.9,-8.95,81.55,56,0,6.53
548,Colon,PA,2021-07-19 15:45:21,9.3592,-79.9014,90.25,77,93,5.99
549,Marsh Harbour,BS,2021-07-19 15:49:59,26.5412,-77.0636,83.66,69,10,14.67
550,Hun,LY,2021-07-19 15:49:59,29.1268,15.9477,93.13,21,0,11.23
551,Pervomayskoye,RU,2021-07-19 15:50:00,43.919,46.7102,88.25,34,0,11.27
552,Beyneu,KZ,2021-07-19 15:50:00,45.3167,55.2,99.27,16,66,1.72
553,Charyshskoye,RU,2021-07-19 15:50:01,51.3978,83.5598,62.38,85,87,2.64
554,Gualeguay,AR,2021-07-19 15:50:01,-33.1416,-59.3097,52.59,49,0,4.68
555,Kudahuvadhoo,MV,2021-07-19 15:50:01,2.6708,72.8944,83.39,71,86,8.48
556,Kamenka,RU,2021-07-19 15:50:03,51.3223,42.7678,81.97,54,30,10.09
557,Vallenar,CL,2021-07-19 15:50:03,-28.5708,-70.7581,75.29,13,0,3.11
558,Bay Roberts,CA,2021-07-19 15:50:04,47.5999,-53.2648,75.51,65,88,3.0
559,Zasheyek,RU,2021-07-19 15:50:04,67.4066,32.5499,56.73,63,93,7.65
560,Balkhash,KZ,2021-07-19 15:50:04,46.844,74.9804,78.75,40,42,8.72
561,Stromness,GB,2021-07-19 15:50:05,58.965,-3.296,60.76,92,100,14.85
562,Mamallapuram,IN,2021-07-19 15:50:05,12.6264,80.1722,82.45,68,100,12.33
563,Yashkul,RU,2021-07-19 15:50:05,46.1711,45.3435,99.57,19,0,3.91
564,Zaysan,KZ,2021-07-19 15:50:06,47.4667,84.8667,71.42,30,59,6.82
565,Pemba,MZ,2021-07-19 15:50:06,-12.974,40.5178,79.5,69,75,15.01
566,Umm Kaddadah,SD,2021-07-19 15:50:06,13.6017,26.6876,92.17,31,53,4.7
567,Muisne,EC,2021-07-19 15:50:07,0.6,-80.0333,80.71,80,97,7.52
568,Karla,EE,2021-07-19 15:50:07,59.3723,24.9275,67.05,57,40,16.11
